{"businesses": [{"id": "dkN4tBckgSUM39_yI5eGEA", "alias": "broken-shaker-chicago-chicago-3", "name": "Broken Shaker Chicago", "image_url": "https://s3-media1.fl.yelpcdn.com/bphoto/M5taJOer9GxO1lRtZinw2g/o.jpg", "is_closed": false, "url": "https://www.yelp.com/biz/broken-shaker-chicago-chicago-3?adjust_creative=R_NtIwEk2UZQboFrd9Y50w&utm_campaign=yelp_api_v3&utm_medium=api_v3_business_search&utm_source=R_NtIwEk2UZQboFrd9Y50w", "review_count": 394, "categories": [{"alias": "cocktailbars", "title": "Cocktail Bars"}, {"alias": "newamerican", "title": "American (New)"}], "rating": 4.0, "coordinates": {"latitude": 41.89233, "longitude": -87.62727}, "transactions": [], "price": "$$", "location": {"address1": "19 East Ohio St", "address2": "", "address3": "", "city": "Chicago", "zip_code": "60611", "country": "US", "state": "IL", "display_address": ["19 East Ohio St", "Chicago, IL 60611"]}, "phone": "+13129403699", "display_phone": "(312) 940-3699", "distance": 4415.5372465322325}, {"id": "faOpq9ORL0FlsMrou2NYug", "alias": "amaru-chicago", "name": "Amaru", "image_url": "https://s3-media1.fl.yelpcdn.com/bphoto/tRoYFd1MAn7oys4HLgCujQ/o.jpg", "is_closed": false, "url": "https://www.yelp.com/biz/amaru-chicago?adjust_creative=R_NtIwEk2UZQboFrd9Y50w&utm_campaign=yelp_api_v3&utm_medium=api_v3_business_search&utm_source=R_NtIwEk2UZQboFrd9Y50w", "review_count": 91, "categories": [{"alias": "latin", "title": "Latin American"}, {"alias": "caribbean", "title": "Caribbean"}, {"alias": "cocktailbars", "title": "Cocktail Bars"}], "rating": 5.0, "coordinates": {"latitude": 41.91071, "longitude": -87.67536}, "transactions": ["delivery"], "location": {"address1": "1904 W N Ave", "address2": null, "address3": "", "city": "Chicago", "zip_code": "60622", "country": "US", "state": "IL", "display_address": ["1904 W N Ave", "Chicago, IL 60622"]}, "phone": "+17736879790", "display_phone": "(773) 687-9790", "distance": 648.0598606286126}, {"id": "zQnbP2dJoro12dk66RUXBA", "alias": "blackwood-bbq-chicago", "name": "Blackwood BBQ", "image_url": "https://s3-media1.fl.yelpcdn.com/bphoto/VJUmkiRNrufSvsS59RLTiA/o.jpg", "is_closed": false, "url": "https://www.yelp.com/biz/blackwood-bbq-chicago?adjust_creative=R_NtIwEk2UZQboFrd9Y50w&utm_campaign=yelp_api_v3&utm_medium=api_v3_business_search&utm_source=R_NtIwEk2UZQboFrd9Y50w", "review_count": 354, "categories": [{"alias": "bbq", "title": "Barbeque"}, {"alias": "salad", "title": "Salad"}, {"alias": "sandwiches", "title": "Sandwiches"}], "rating": 4.0, "coordinates": {"latitude": 41.885604, "longitude": -87.63594}, "transactions": ["delivery", "pickup"], "price": "$", "location": {"address1": "307 W Lake St", "address2": "", "address3": "", "city": "Chicago", "zip_code": "60606", "country": "US", "state": "IL", "display_address": ["307 W Lake St", "Chicago, IL 60606"]}, "phone": "+13126219663", "display_phone": "(312) 621-9663", "distance": 4088.086882585602}, {"id": "IvEwb3qOgFK6E23FN6D1Yw", "alias": "chicagos-dog-house-chicago-2", "name": "Chicago's Dog House", "image_url": "https://s3-media2.fl.yelpcdn.com/bphoto/jdsCINpjVt3SDLGLHjfmIQ/o.jpg", "is_closed": false, "url": "https://www.yelp.com/biz/chicagos-dog-house-chicago-2?adjust_creative=R_NtIwEk2UZQboFrd9Y50w&utm_campaign=yelp_api_v3&utm_medium=api_v3_business_search&utm_source=R_NtIwEk2UZQboFrd9Y50w", "review_count": 427, "categories": [{"alias": "hotdog", "title": "Hot Dogs"}, {"alias": "hotdogs", "title": "Fast Food"}], "rating": 4.0, "coordinates": {"latitude": 41.9255849, "longitude": -87.6492199}, "transactions": ["delivery", "pickup"], "price": "$", "location": {"address1": "816 W Fullerton Ave", "address2": "", "address3": "", "city": "Chicago", "zip_code": "60614", "country": "US", "state": "IL", "display_address": ["816 W Fullerton Ave", "Chicago, IL 60614"]}, "phone": "+17732483647", "display_phone": "(773) 248-3647", "distance": 3256.495258766629}, {"id": "bEhKMjnmpZLtFb7oAKjYYA", "alias": "fatpour-tap-works-chicago", "name": "Fatpour Tap Works", "image_url": "https://s3-media1.fl.yelpcdn.com/bphoto/CFzniZDYKRDYm3jZCRpKyg/o.jpg", "is_closed": false, "url": "https://www.yelp.com/biz/fatpour-tap-works-chicago?adjust_creative=R_NtIwEk2UZQboFrd9Y50w&utm_campaign=yelp_api_v3&utm_medium=api_v3_business_search&utm_source=R_NtIwEk2UZQboFrd9Y50w", "review_count": 592, "categories": [{"alias": "sportsbars", "title": "Sports Bars"}, {"alias": "newamerican", "title": "American (New)"}, {"alias": "pizza", "title": "Pizza"}], "rating": 3.5, "coordinates": {"latitude": 41.90289, "longitude": -87.67762}, "transactions": ["delivery", "restaurant_reservation"], "price": "$$", "location": {"address1": "2005 W Division St", "address2": "", "address3": "", "city": "Chicago", "zip_code": "60622", "country": "US", "state": "IL", "display_address": ["2005 W Division St", "Chicago, IL 60622"]}, "phone": "+17736988940", "display_phone": "(773) 698-8940", "distance": 245.60407981465886}, {"id": "XHTod-9H66e1krXYQjxRBQ", "alias": "fig-and-olive-chicago-7", "name": "Fig & Olive", "image_url": "https://s3-media3.fl.yelpcdn.com/bphoto/6vPKVIRK5ynBkq2_WBfS7g/o.jpg", "is_closed": false, "url": "https://www.yelp.com/biz/fig-and-olive-chicago-7?adjust_creative=R_NtIwEk2UZQboFrd9Y50w&utm_campaign=yelp_api_v3&utm_medium=api_v3_business_search&utm_source=R_NtIwEk2UZQboFrd9Y50w", "review_count": 816, "categories": [{"alias": "mediterranean", "title": "Mediterranean"}, {"alias": "french", "title": "French"}, {"alias": "breakfast_brunch", "title": "Breakfast & Brunch"}], "rating": 3.5, "coordinates": {"latitude": 41.9010317, "longitude": -87.625532}, "transactions": ["delivery"], "price": "$$$", "location": {"address1": "104 E Oak St", "address2": "", "address3": "", "city": "Chicago", "zip_code": "60611", "country": "US", "state": "IL", "display_address": ["104 E Oak St", "Chicago, IL 60611"]}, "phone": "+13124450060", "display_phone": "(312) 445-0060", "distance": 4347.0678530276155}, {"id": "RU3rDAIUv3iNwkiuS3wMbg", "alias": "piatto-pronto-chicago", "name": "Piatto Pronto", "image_url": "https://s3-media4.fl.yelpcdn.com/bphoto/AoAGHkOmFC3YFKngl68Teg/o.jpg", "is_closed": false, "url": "https://www.yelp.com/biz/piatto-pronto-chicago?adjust_creative=R_NtIwEk2UZQboFrd9Y50w&utm_campaign=yelp_api_v3&utm_medium=api_v3_business_search&utm_source=R_NtIwEk2UZQboFrd9Y50w", "review_count": 318, "categories": [{"alias": "delis", "title": "Delis"}, {"alias": "grocery", "title": "Grocery"}], "rating": 4.5, "coordinates": {"latitude": 41.98425, "longitude": -87.66929}, "transactions": ["delivery", "pickup"], "price": "$", "location": {"address1": "5624 N Clark St", "address2": "", "address3": "", "city": "Chicago", "zip_code": "60660", "country": "US", "state": "IL", "display_address": ["5624 N Clark St", "Chicago, IL 60660"]}, "phone": "+17733345688", "display_phone": "(773) 334-5688", "distance": 8822.404605667922}, {"id": "R9MFihPd2WlN6Ze7OcOdqQ", "alias": "mirai-sushi-wicker-park-chicago", "name": "Mirai Sushi - Wicker Park", "image_url": "https://s3-media3.fl.yelpcdn.com/bphoto/epjmODA6Ff3DgcA4HP2vUQ/o.jpg", "is_closed": false, "url": "https://www.yelp.com/biz/mirai-sushi-wicker-park-chicago?adjust_creative=R_NtIwEk2UZQboFrd9Y50w&utm_campaign=yelp_api_v3&utm_medium=api_v3_business_search&utm_source=R_NtIwEk2UZQboFrd9Y50w", "review_count": 515, "categories": [{"alias": "sushi", "title": "Sushi Bars"}, {"alias": "japanese", "title": "Japanese"}], "rating": 4.0, "coordinates": {"latitude": 41.9034767150879, "longitude": -87.67822265625}, "transactions": ["delivery", "pickup"], "price": "$$$", "location": {"address1": "2020 W Division St", "address2": "", "address3": "", "city": "Chicago", "zip_code": "60622", "country": "US", "state": "IL", "display_address": ["2020 W Division St", "Chicago, IL 60622"]}, "phone": "+17738628500", "display_phone": "(773) 862-8500", "distance": 204.54110063560532}, {"id": "W3G0ytMhEITrWhJGCZ3D0g", "alias": "aroy-thai-restaurant-chicago", "name": "Aroy Thai Restaurant", "image_url": "https://s3-media3.fl.yelpcdn.com/bphoto/cd6cWBJNM4wSrxlgrYvXPw/o.jpg", "is_closed": false, "url": "https://www.yelp.com/biz/aroy-thai-restaurant-chicago?adjust_creative=R_NtIwEk2UZQboFrd9Y50w&utm_campaign=yelp_api_v3&utm_medium=api_v3_business_search&utm_source=R_NtIwEk2UZQboFrd9Y50w", "review_count": 405, "categories": [{"alias": "thai", "title": "Thai"}], "rating": 4.0, "coordinates": {"latitude": 41.966782, "longitude": -87.679292}, "transactions": ["delivery"], "price": "$$", "location": {"address1": "4654 N Damen Ave", "address2": "", "address3": "", "city": "Chicago", "zip_code": "60625", "country": "US", "state": "IL", "display_address": ["4654 N Damen Ave", "Chicago, IL 60625"]}, "phone": "+17732758360", "display_phone": "(773) 275-8360", "distance": 6853.293099923403}, {"id": "j7kcbdUFjroGeta8ieN1gw", "alias": "perkolator-chicago", "name": "Perkolator", "image_url": "https://s3-media2.fl.yelpcdn.com/bphoto/CnhkpZYVUK4MaaUXzhBGXg/o.jpg", "is_closed": false, "url": "https://www.yelp.com/biz/perkolator-chicago?adjust_creative=R_NtIwEk2UZQboFrd9Y50w&utm_campaign=yelp_api_v3&utm_medium=api_v3_business_search&utm_source=R_NtIwEk2UZQboFrd9Y50w", "review_count": 206, "categories": [{"alias": "cafes", "title": "Cafes"}], "rating": 4.5, "coordinates": {"latitude": 41.9531543, "longitude": -87.7782196}, "transactions": ["delivery"], "price": "$", "location": {"address1": "6032 W Irving Park Rd", "address2": "", "address3": "", "city": "Chicago", "zip_code": "60634", "country": "US", "state": "IL", "display_address": ["6032 W Irving Park Rd", "Chicago, IL 60634"]}, "phone": "+17738532261", "display_phone": "(773) 853-2261", "distance": 9875.591210858178}, {"id": "PFg_W14UFHXtwHOxquirIA", "alias": "yoshis-cafe-chicago", "name": "Yoshi's Cafe", "image_url": "https://s3-media4.fl.yelpcdn.com/bphoto/fkeu2HIQRcR9reugnyI-Vg/o.jpg", "is_closed": false, "url": "https://www.yelp.com/biz/yoshis-cafe-chicago?adjust_creative=R_NtIwEk2UZQboFrd9Y50w&utm_campaign=yelp_api_v3&utm_medium=api_v3_business_search&utm_source=R_NtIwEk2UZQboFrd9Y50w", "review_count": 303, "categories": [{"alias": "newamerican", "title": "American (New)"}, {"alias": "japanese", "title": "Japanese"}, {"alias": "breakfast_brunch", "title": "Breakfast & Brunch"}], "rating": 4.0, "coordinates": {"latitude": 41.941684844144, "longitude": -87.6491892846558}, "transactions": [], "price": "$$", "location": {"address1": "3257 N Halsted St", "address2": "", "address3": "", "city": "Chicago", "zip_code": "60657", "country": "US", "state": "IL", "display_address": ["3257 N Halsted St", "Chicago, IL 60657"]}, "phone": "+17732486160", "display_phone": "(773) 248-6160", "distance": 4699.429174177678}, {"id": "lwl1vEEagUrhNXhDI1StQA", "alias": "coco-pazzo-cafe-chicago-5", "name": "Coco Pazzo Cafe", "image_url": "https://s3-media2.fl.yelpcdn.com/bphoto/TjMrs8Ftv9DfUJvUHK8Cqw/o.jpg", "is_closed": false, "url": "https://www.yelp.com/biz/coco-pazzo-cafe-chicago-5?adjust_creative=R_NtIwEk2UZQboFrd9Y50w&utm_campaign=yelp_api_v3&utm_medium=api_v3_business_search&utm_source=R_NtIwEk2UZQboFrd9Y50w", "review_count": 353, "categories": [{"alias": "italian", "title": "Italian"}, {"alias": "pizza", "title": "Pizza"}, {"alias": "wine_bars", "title": "Wine Bars"}], "rating": 4.0, "coordinates": {"latitude": 41.8927539, "longitude": -87.6220247}, "transactions": ["delivery", "pickup"], "price": "$$", "location": {"address1": "212 E Ohio St", "address2": "", "address3": "", "city": "Chicago", "zip_code": "60611", "country": "US", "state": "IL", "display_address": ["212 E Ohio St", "Chicago, IL 60611"]}, "phone": "+13126640212", "display_phone": "(312) 664-0212", "distance": 4815.144425164875}, {"id": "gFQ-NcVxqAb4S29S7DLehA", "alias": "hot-dog-station-chicago-2", "name": "Hot Dog Station", "image_url": "https://s3-media2.fl.yelpcdn.com/bphoto/2bSNGS7T0uwFFX0AcwEdaA/o.jpg", "is_closed": false, "url": "https://www.yelp.com/biz/hot-dog-station-chicago-2?adjust_creative=R_NtIwEk2UZQboFrd9Y50w&utm_campaign=yelp_api_v3&utm_medium=api_v3_business_search&utm_source=R_NtIwEk2UZQboFrd9Y50w", "review_count": 182, "categories": [{"alias": "hotdog", "title": "Hot Dogs"}, {"alias": "burgers", "title": "Burgers"}], "rating": 4.5, "coordinates": {"latitude": 41.9679886090324, "longitude": -87.7134617808249}, "transactions": ["delivery", "pickup"], "price": "$", "location": {"address1": "4742 N Kimball", "address2": "", "address3": "", "city": "Chicago", "zip_code": "60625", "country": "US", "state": "IL", "display_address": ["4742 N Kimball", "Chicago, IL 60625"]}, "phone": "+17735882580", "display_phone": "(773) 588-2580", "distance": 7584.645206026472}, {"id": "c-2RLpueD2I9m4dYgL9kPQ", "alias": "blaze-fast-fired-pizza-chicago-2", "name": "Blaze Fast-Fire'd Pizza", "image_url": "https://s3-media2.fl.yelpcdn.com/bphoto/TVB34L0vEb28rEaT1j_l6g/o.jpg", "is_closed": false, "url": "https://www.yelp.com/biz/blaze-fast-fired-pizza-chicago-2?adjust_creative=R_NtIwEk2UZQboFrd9Y50w&utm_campaign=yelp_api_v3&utm_medium=api_v3_business_search&utm_source=R_NtIwEk2UZQboFrd9Y50w", "review_count": 396, "categories": [{"alias": "pizza", "title": "Pizza"}, {"alias": "salad", "title": "Salad"}, {"alias": "hotdogs", "title": "Fast Food"}], "rating": 4.0, "coordinates": {"latitude": 41.89314, "longitude": -87.62161}, "transactions": [], "price": "$", "location": {"address1": "227 East Ontario St", "address2": null, "address3": null, "city": "Chicago", "zip_code": "60611", "country": "US", "state": "IL", "display_address": ["227 East Ontario St", "Chicago, IL 60611"]}, "phone": "+13127660019", "display_phone": "(312) 766-0019", "distance": 4832.373861204358}, {"id": "_n3OmwreEGPQmiHKklsD8w", "alias": "san-soo-gab-san-chicago", "name": "San Soo Gab San", "image_url": "https://s3-media4.fl.yelpcdn.com/bphoto/KWYt16MRbAF5uajRV-cWcg/o.jpg", "is_closed": false, "url": "https://www.yelp.com/biz/san-soo-gab-san-chicago?adjust_creative=R_NtIwEk2UZQboFrd9Y50w&utm_campaign=yelp_api_v3&utm_medium=api_v3_business_search&utm_source=R_NtIwEk2UZQboFrd9Y50w", "review_count": 1303, "categories": [{"alias": "korean", "title": "Korean"}, {"alias": "bbq", "title": "Barbeque"}, {"alias": "panasian", "title": "Pan Asian"}], "rating": 3.5, "coordinates": {"latitude": 41.9775897881067, "longitude": -87.6887278533035}, "transactions": ["delivery"], "price": "$$", "location": {"address1": "5247 N Western Ave", "address2": "", "address3": "", "city": "Chicago", "zip_code": "60625", "country": "US", "state": "IL", "display_address": ["5247 N Western Ave", "Chicago, IL 60625"]}, "phone": "+17733341589", "display_phone": "(773) 334-1589", "distance": 8104.780843043588}, {"id": "umGEOhvhbqhh72Mn47a4Zw", "alias": "el-milagro-tortilla-chicago-2", "name": "El Milagro Tortilla", "image_url": "https://s3-media3.fl.yelpcdn.com/bphoto/6aTydHVigIkOdpN87Zk2lw/o.jpg", "is_closed": false, "url": "https://www.yelp.com/biz/el-milagro-tortilla-chicago-2?adjust_creative=R_NtIwEk2UZQboFrd9Y50w&utm_campaign=yelp_api_v3&utm_medium=api_v3_business_search&utm_source=R_NtIwEk2UZQboFrd9Y50w", "review_count": 345, "categories": [{"alias": "mexican", "title": "Mexican"}], "rating": 4.0, "coordinates": {"latitude": 41.8551733, "longitude": -87.6631926}, "transactions": [], "price": "$", "location": {"address1": "1927 S Blue Island Ave", "address2": "", "address3": "", "city": "Chicago", "zip_code": "60608", "country": "US", "state": "IL", "display_address": ["1927 S Blue Island Ave", "Chicago, IL 60608"]}, "phone": "+13124217443", "display_phone": "(312) 421-7443", "distance": 5679.693874288805}, {"id": "33r5J19uqUKJHreIgUBWZg", "alias": "primo-chukis-chicago-2", "name": "Primo Chuki's", "image_url": "https://s3-media2.fl.yelpcdn.com/bphoto/1SL_ZKER0ScCiD-xyqvRaQ/o.jpg", "is_closed": false, "url": "https://www.yelp.com/biz/primo-chukis-chicago-2?adjust_creative=R_NtIwEk2UZQboFrd9Y50w&utm_campaign=yelp_api_v3&utm_medium=api_v3_business_search&utm_source=R_NtIwEk2UZQboFrd9Y50w", "review_count": 259, "categories": [{"alias": "mexican", "title": "Mexican"}], "rating": 4.5, "coordinates": {"latitude": 41.96898, "longitude": -87.671467}, "transactions": ["delivery"], "price": "$", "location": {"address1": "1708 W Lawrence Ave", "address2": "", "address3": null, "city": "Chicago", "zip_code": "60640", "country": "US", "state": "IL", "display_address": ["1708 W Lawrence Ave", "Chicago, IL 60640"]}, "phone": "+18722087075", "display_phone": "(872) 208-7075", "distance": 7115.629370466858}, {"id": "eHpf-vadyWIK23bdK67IXA", "alias": "dolo-restaurant-and-bar-chicago-3", "name": "Dolo Restaurant and Bar", "image_url": "https://s3-media1.fl.yelpcdn.com/bphoto/jk86QtAE8MA-rFKN-FokQQ/o.jpg", "is_closed": false, "url": "https://www.yelp.com/biz/dolo-restaurant-and-bar-chicago-3?adjust_creative=R_NtIwEk2UZQboFrd9Y50w&utm_campaign=yelp_api_v3&utm_medium=api_v3_business_search&utm_source=R_NtIwEk2UZQboFrd9Y50w", "review_count": 468, "categories": [{"alias": "dimsum", "title": "Dim Sum"}, {"alias": "bars", "title": "Bars"}, {"alias": "seafood", "title": "Seafood"}], "rating": 4.0, "coordinates": {"latitude": 41.8525599, "longitude": -87.63604}, "transactions": ["delivery", "pickup", "restaurant_reservation"], "price": "$$", "location": {"address1": "2222 S Archer Ave", "address2": "", "address3": "", "city": "Chicago", "zip_code": "60616", "country": "US", "state": "IL", "display_address": ["2222 S Archer Ave", "Chicago, IL 60616"]}, "phone": "+13128775117", "display_phone": "(312) 877-5117", "distance": 6790.410996385903}, {"id": "34C7qV4KzeOyRWZId6pl_g", "alias": "smith-and-wollensky-chicago", "name": "Smith & Wollensky", "image_url": "https://s3-media4.fl.yelpcdn.com/bphoto/kNIukQlcFiWQReVZYspJ5g/o.jpg", "is_closed": false, "url": "https://www.yelp.com/biz/smith-and-wollensky-chicago?adjust_creative=R_NtIwEk2UZQboFrd9Y50w&utm_campaign=yelp_api_v3&utm_medium=api_v3_business_search&utm_source=R_NtIwEk2UZQboFrd9Y50w", "review_count": 889, "categories": [{"alias": "steak", "title": "Steakhouses"}, {"alias": "seafood", "title": "Seafood"}, {"alias": "newamerican", "title": "American (New)"}], "rating": 3.5, "coordinates": {"latitude": 41.8883017, "longitude": -87.6281349}, "transactions": [], "price": "$$$", "location": {"address1": "318 N State St", "address2": "", "address3": "", "city": "Chicago", "zip_code": "60654", "country": "US", "state": "IL", "display_address": ["318 N State St", "Chicago, IL 60654"]}, "phone": "+13126709900", "display_phone": "(312) 670-9900", "distance": 4502.101301229871}, {"id": "mWDZVQxJ5p6aNp7ipa6DEQ", "alias": "sumo-sushi-and-hibachi-chicago", "name": "Sumo Sushi and Hibachi", "image_url": "https://s3-media1.fl.yelpcdn.com/bphoto/6ZZOQGsU5R1LpcqiK1QsSg/o.jpg", "is_closed": false, "url": "https://www.yelp.com/biz/sumo-sushi-and-hibachi-chicago?adjust_creative=R_NtIwEk2UZQboFrd9Y50w&utm_campaign=yelp_api_v3&utm_medium=api_v3_business_search&utm_source=R_NtIwEk2UZQboFrd9Y50w", "review_count": 284, "categories": [{"alias": "sushi", "title": "Sushi Bars"}, {"alias": "japanese", "title": "Japanese"}], "rating": 4.5, "coordinates": {"latitude": 41.9359375, "longitude": -87.6444353}, "transactions": ["delivery", "pickup"], "price": "$$", "location": {"address1": "2936 N Broadway", "address2": null, "address3": null, "city": "Chicago", "zip_code": "60657", "country": "US", "state": "IL", "display_address": ["2936 N Broadway", "Chicago, IL 60657"]}, "phone": "+17734778510", "display_phone": "(773) 477-8510", "distance": 4399.872810443571}, {"id": "cnDJOvf7kErlCj1LgDTe6A", "alias": "chicken-and-farm-shop-chicago", "name": "Chicken & Farm Shop", "image_url": "https://s3-media1.fl.yelpcdn.com/bphoto/awbe-MXz-zh2XmMKeeV1sQ/o.jpg", "is_closed": false, "url": "https://www.yelp.com/biz/chicken-and-farm-shop-chicago?adjust_creative=R_NtIwEk2UZQboFrd9Y50w&utm_campaign=yelp_api_v3&utm_medium=api_v3_business_search&utm_source=R_NtIwEk2UZQboFrd9Y50w", "review_count": 368, "categories": [{"alias": "tradamerican", "title": "American (Traditional)"}, {"alias": "southern", "title": "Southern"}, {"alias": "chickenshop", "title": "Chicken Shop"}], "rating": 4.0, "coordinates": {"latitude": 41.883746, "longitude": -87.648281}, "transactions": ["delivery", "pickup"], "price": "$$", "location": {"address1": "113-125 N Green St", "address2": "Soho House Chicago", "address3": "", "city": "Chicago", "zip_code": "60607", "country": "US", "state": "IL", "display_address": ["113-125 N Green St", "Soho House Chicago", "Chicago, IL 60607"]}, "phone": "+13125218000", "display_phone": "(312) 521-8000", "distance": 3409.5363300020203}, {"id": "0dsmnEYaTVsT2OglrlWTmg", "alias": "alice-and-friends-vegan-kitchen-chicago-2", "name": "Alice & Friends' Vegan Kitchen", "image_url": "https://s3-media1.fl.yelpcdn.com/bphoto/-pWqquvdFcZwCLX6CJ3SMA/o.jpg", "is_closed": false, "url": "https://www.yelp.com/biz/alice-and-friends-vegan-kitchen-chicago-2?adjust_creative=R_NtIwEk2UZQboFrd9Y50w&utm_campaign=yelp_api_v3&utm_medium=api_v3_business_search&utm_source=R_NtIwEk2UZQboFrd9Y50w", "review_count": 338, "categories": [{"alias": "vegan", "title": "Vegan"}], "rating": 4.5, "coordinates": {"latitude": 41.9875134, "longitude": -87.6603665}, "transactions": ["delivery", "pickup"], "price": "$$", "location": {"address1": "5812 N Broadway", "address2": "", "address3": "", "city": "Chicago", "zip_code": "60660", "country": "US", "state": "IL", "display_address": ["5812 N Broadway", "Chicago, IL 60660"]}, "phone": "+17732758797", "display_phone": "(773) 275-8797", "distance": 9265.349100628417}, {"id": "8VMNhH7CDY3Mb1Rha4psjg", "alias": "ms-ts-southern-fried-chicken-chicago-7", "name": "Ms. T's Southern Fried Chicken", "image_url": "https://s3-media1.fl.yelpcdn.com/bphoto/noySQrRdJCyMMifR3QEpjw/o.jpg", "is_closed": false, "url": "https://www.yelp.com/biz/ms-ts-southern-fried-chicken-chicago-7?adjust_creative=R_NtIwEk2UZQboFrd9Y50w&utm_campaign=yelp_api_v3&utm_medium=api_v3_business_search&utm_source=R_NtIwEk2UZQboFrd9Y50w", "review_count": 256, "categories": [{"alias": "southern", "title": "Southern"}, {"alias": "chickenshop", "title": "Chicken Shop"}], "rating": 4.5, "coordinates": {"latitude": 41.94309, "longitude": -87.644496}, "transactions": ["delivery", "pickup"], "price": "$", "location": {"address1": "3343 N Broadway", "address2": "", "address3": "", "city": "Chicago", "zip_code": "60657", "country": "US", "state": "IL", "display_address": ["3343 N Broadway", "Chicago, IL 60657"]}, "phone": "+17737282500", "display_phone": "(773) 728-2500", "distance": 5036.345680179943}, {"id": "IoJoWPp7dQOjeCfT2ki3cA", "alias": "ricanos-restaurant-chicago-2", "name": "Ricano's Restaurant", "image_url": "https://s3-media4.fl.yelpcdn.com/bphoto/Bdxns5zhjbL2tbS4silwHw/o.jpg", "is_closed": false, "url": "https://www.yelp.com/biz/ricanos-restaurant-chicago-2?adjust_creative=R_NtIwEk2UZQboFrd9Y50w&utm_campaign=yelp_api_v3&utm_medium=api_v3_business_search&utm_source=R_NtIwEk2UZQboFrd9Y50w", "review_count": 308, "categories": [{"alias": "tradamerican", "title": "American (Traditional)"}, {"alias": "mexican", "title": "Mexican"}], "rating": 4.0, "coordinates": {"latitude": 41.87793, "longitude": -87.66707}, "transactions": ["delivery", "pickup"], "price": "$$", "location": {"address1": "230 S Ashland Ave", "address2": "", "address3": "", "city": "Chicago", "zip_code": "60607", "country": "US", "state": "IL", "display_address": ["230 S Ashland Ave", "Chicago, IL 60607"]}, "phone": "+13126667253", "display_phone": "(312) 666-7253", "distance": 3158.130622933305}, {"id": "rAPCpaJENgcSDM-t_Lsqag", "alias": "pokiology-chicago", "name": "Pokiology", "image_url": "https://s3-media2.fl.yelpcdn.com/bphoto/xG7CUjDwHGGYAUJvitGNXQ/o.jpg", "is_closed": false, "url": "https://www.yelp.com/biz/pokiology-chicago?adjust_creative=R_NtIwEk2UZQboFrd9Y50w&utm_campaign=yelp_api_v3&utm_medium=api_v3_business_search&utm_source=R_NtIwEk2UZQboFrd9Y50w", "review_count": 200, "categories": [{"alias": "poke", "title": "Poke"}, {"alias": "asianfusion", "title": "Asian Fusion"}], "rating": 4.5, "coordinates": {"latitude": 41.965489041314, "longitude": -87.6613923567586}, "transactions": ["delivery", "pickup"], "price": "$$", "location": {"address1": "4600 N Magnolia Ave", "address2": "Ste C", "address3": null, "city": "Chicago", "zip_code": "60640", "country": "US", "state": "IL", "display_address": ["4600 N Magnolia Ave", "Ste C", "Chicago, IL 60640"]}, "phone": "+17739617624", "display_phone": "(773) 961-7624", "distance": 6843.697998621138}, {"id": "qizzFBua15kSbWB48T8XGg", "alias": "public-house-chicago", "name": "Public House", "image_url": "https://s3-media2.fl.yelpcdn.com/bphoto/L8NaTdb-t8bYoZlg4eoOPA/o.jpg", "is_closed": false, "url": "https://www.yelp.com/biz/public-house-chicago?adjust_creative=R_NtIwEk2UZQboFrd9Y50w&utm_campaign=yelp_api_v3&utm_medium=api_v3_business_search&utm_source=R_NtIwEk2UZQboFrd9Y50w", "review_count": 1127, "categories": [{"alias": "newamerican", "title": "American (New)"}, {"alias": "sportsbars", "title": "Sports Bars"}, {"alias": "beerbar", "title": "Beer Bar"}], "rating": 3.5, "coordinates": {"latitude": 41.8893653140557, "longitude": -87.6282758306885}, "transactions": ["delivery", "pickup"], "price": "$$", "location": {"address1": "400 N State St", "address2": "", "address3": "", "city": "Chicago", "zip_code": "60654", "country": "US", "state": "IL", "display_address": ["400 N State St", "Chicago, IL 60654"]}, "phone": "+13122651240", "display_phone": "(312) 265-1240", "distance": 4456.682651083321}, {"id": "YQ_ZW6rnU5IshuiGlnlTUg", "alias": "niu-japanese-fusion-lounge-chicago", "name": "Niu Japanese Fusion Lounge", "image_url": "https://s3-media4.fl.yelpcdn.com/bphoto/aSWVQD-g3LEcVpDTdL5k2A/o.jpg", "is_closed": false, "url": "https://www.yelp.com/biz/niu-japanese-fusion-lounge-chicago?adjust_creative=R_NtIwEk2UZQboFrd9Y50w&utm_campaign=yelp_api_v3&utm_medium=api_v3_business_search&utm_source=R_NtIwEk2UZQboFrd9Y50w", "review_count": 810, "categories": [{"alias": "sushi", "title": "Sushi Bars"}, {"alias": "japanese", "title": "Japanese"}, {"alias": "asianfusion", "title": "Asian Fusion"}], "rating": 3.5, "coordinates": {"latitude": 41.891185141978, "longitude": -87.618678666509}, "transactions": ["delivery", "pickup"], "price": "$$", "location": {"address1": "332 E Illinois St", "address2": "", "address3": "", "city": "Chicago", "zip_code": "60611", "country": "US", "state": "IL", "display_address": ["332 E Illinois St", "Chicago, IL 60611"]}, "phone": "+13125272888", "display_phone": "(312) 527-2888", "distance": 5131.251933657176}, {"id": "gYngvyYN0-iqXqjk55mfpA", "alias": "billy-goat-tavern-chicago-chicago", "name": "Billy Goat Tavern - Chicago", "image_url": "https://s3-media3.fl.yelpcdn.com/bphoto/7H3FTmfcYK1nyb-XGbcgxw/o.jpg", "is_closed": false, "url": "https://www.yelp.com/biz/billy-goat-tavern-chicago-chicago?adjust_creative=R_NtIwEk2UZQboFrd9Y50w&utm_campaign=yelp_api_v3&utm_medium=api_v3_business_search&utm_source=R_NtIwEk2UZQboFrd9Y50w", "review_count": 919, "categories": [{"alias": "divebars", "title": "Dive Bars"}, {"alias": "burgers", "title": "Burgers"}], "rating": 3.5, "coordinates": {"latitude": 41.890362, "longitude": -87.624495}, "transactions": ["delivery", "pickup"], "price": "$", "location": {"address1": "430 N Michigan Ave", "address2": "", "address3": "", "city": "Chicago", "zip_code": "60611", "country": "US", "state": "IL", "display_address": ["430 N Michigan Ave", "Chicago, IL 60611"]}, "phone": "+13122221525", "display_phone": "(312) 222-1525", "distance": 4705.975822899572}, {"id": "m_J7wFRwwRdck6M-dfn3iw", "alias": "buena-vista-chicago", "name": "Buena Vista", "image_url": "https://s3-media4.fl.yelpcdn.com/bphoto/UOr5VOAefIKd-AFGY-WDYw/o.jpg", "is_closed": false, "url": "https://www.yelp.com/biz/buena-vista-chicago?adjust_creative=R_NtIwEk2UZQboFrd9Y50w&utm_campaign=yelp_api_v3&utm_medium=api_v3_business_search&utm_source=R_NtIwEk2UZQboFrd9Y50w", "review_count": 336, "categories": [{"alias": "mexican", "title": "Mexican"}], "rating": 4.0, "coordinates": {"latitude": 41.9389519, "longitude": -87.6441962}, "transactions": ["delivery", "pickup"], "price": "$", "location": {"address1": "3147 N Broadway", "address2": "", "address3": "", "city": "Chicago", "zip_code": "60657", "country": "US", "state": "IL", "display_address": ["3147 N Broadway", "Chicago, IL 60657"]}, "phone": "+17738715782", "display_phone": "(773) 871-5782", "distance": 4674.317121802505}, {"id": "z-XvS31G0aUZHU9eLdtQRA", "alias": "the-coffee-studio-chicago-2", "name": "The Coffee Studio", "image_url": "https://s3-media1.fl.yelpcdn.com/bphoto/_rDYc1PFfgXuXuANIYG97g/o.jpg", "is_closed": false, "url": "https://www.yelp.com/biz/the-coffee-studio-chicago-2?adjust_creative=R_NtIwEk2UZQboFrd9Y50w&utm_campaign=yelp_api_v3&utm_medium=api_v3_business_search&utm_source=R_NtIwEk2UZQboFrd9Y50w", "review_count": 421, "categories": [{"alias": "coffee", "title": "Coffee & Tea"}, {"alias": "cafes", "title": "Cafes"}], "rating": 4.0, "coordinates": {"latitude": 41.984327090113, "longitude": -87.669086660493}, "transactions": [], "price": "$", "location": {"address1": "5628 N Clark St", "address2": "", "address3": "", "city": "Chicago", "zip_code": "60660", "country": "US", "state": "IL", "display_address": ["5628 N Clark St", "Chicago, IL 60660"]}, "phone": "+17732717881", "display_phone": "(773) 271-7881", "distance": 8832.26286185335}, {"id": "OCrTpzL3Hsst-ckiaTeMyQ", "alias": "fabcakes-chicago", "name": "Fabcakes", "image_url": "https://s3-media1.fl.yelpcdn.com/bphoto/FDKVSOMs5JU2oG65x1D8pA/o.jpg", "is_closed": false, "url": "https://www.yelp.com/biz/fabcakes-chicago?adjust_creative=R_NtIwEk2UZQboFrd9Y50w&utm_campaign=yelp_api_v3&utm_medium=api_v3_business_search&utm_source=R_NtIwEk2UZQboFrd9Y50w", "review_count": 265, "categories": [{"alias": "bakeries", "title": "Bakeries"}, {"alias": "coffee", "title": "Coffee & Tea"}, {"alias": "breakfast_brunch", "title": "Breakfast & Brunch"}], "rating": 4.5, "coordinates": {"latitude": 41.8953018, "longitude": -87.6345367}, "transactions": ["delivery"], "price": "$", "location": {"address1": "714 N Wells St", "address2": "", "address3": "", "city": "Chicago", "zip_code": "60654", "country": "US", "state": "IL", "display_address": ["714 N Wells St", "Chicago, IL 60654"]}, "phone": "+13123973300", "display_phone": "(312) 397-3300", "distance": 3757.4517617253127}, {"id": "IgxcO01CIt2Cy8YjFEDLCA", "alias": "adobo-grill-chicago-2", "name": "Adobo Grill", "image_url": "https://s3-media4.fl.yelpcdn.com/bphoto/yT2Ivs9Qw7Rgw9HTte1PZw/o.jpg", "is_closed": false, "url": "https://www.yelp.com/biz/adobo-grill-chicago-2?adjust_creative=R_NtIwEk2UZQboFrd9Y50w&utm_campaign=yelp_api_v3&utm_medium=api_v3_business_search&utm_source=R_NtIwEk2UZQboFrd9Y50w", "review_count": 751, "categories": [{"alias": "mexican", "title": "Mexican"}, {"alias": "bars", "title": "Bars"}, {"alias": "gluten_free", "title": "Gluten-Free"}], "rating": 3.5, "coordinates": {"latitude": 41.9109338, "longitude": -87.6353587}, "transactions": ["delivery", "pickup"], "price": "$$", "location": {"address1": "215 W North Ave", "address2": "", "address3": null, "city": "Chicago", "zip_code": "60610", "country": "US", "state": "IL", "display_address": ["215 W North Ave", "Chicago, IL 60610"]}, "phone": "+13122667999", "display_phone": "(312) 266-7999", "distance": 3567.5058051193682}, {"id": "6jshyTJKUdcz0YTHyhi1ew", "alias": "mimas-taste-of-cuba-chicago", "name": "Mima's Taste of Cuba", "image_url": "https://s3-media4.fl.yelpcdn.com/bphoto/bGhhKwKyL1Rfip5G1lSLwg/o.jpg", "is_closed": false, "url": "https://www.yelp.com/biz/mimas-taste-of-cuba-chicago?adjust_creative=R_NtIwEk2UZQboFrd9Y50w&utm_campaign=yelp_api_v3&utm_medium=api_v3_business_search&utm_source=R_NtIwEk2UZQboFrd9Y50w", "review_count": 346, "categories": [{"alias": "cuban", "title": "Cuban"}, {"alias": "latin", "title": "Latin American"}, {"alias": "caribbean", "title": "Caribbean"}], "rating": 4.0, "coordinates": {"latitude": 41.95365, "longitude": -87.70171}, "transactions": ["delivery", "pickup"], "price": "$", "location": {"address1": "2925 W Irving Park Rd", "address2": "", "address3": "", "city": "Chicago", "zip_code": "60618", "country": "US", "state": "IL", "display_address": ["2925 W Irving Park Rd", "Chicago, IL 60618"]}, "phone": "+17736543075", "display_phone": "(773) 654-3075", "distance": 5744.174895628825}, {"id": "oT7oYmyGKFdBk0IkuNZG0A", "alias": "mity-nice-chicago-15", "name": "Mity Nice", "image_url": "https://s3-media1.fl.yelpcdn.com/bphoto/UiOxfob0oK08yWPXSWhUKw/o.jpg", "is_closed": false, "url": "https://www.yelp.com/biz/mity-nice-chicago-15?adjust_creative=R_NtIwEk2UZQboFrd9Y50w&utm_campaign=yelp_api_v3&utm_medium=api_v3_business_search&utm_source=R_NtIwEk2UZQboFrd9Y50w", "review_count": 432, "categories": [{"alias": "tradamerican", "title": "American (Traditional)"}, {"alias": "bars", "title": "Bars"}, {"alias": "steak", "title": "Steakhouses"}], "rating": 4.0, "coordinates": {"latitude": 41.8981170141684, "longitude": -87.6232167949677}, "transactions": ["delivery"], "price": "$$", "location": {"address1": "835 N Michigan Ave", "address2": "", "address3": "", "city": "Chicago", "zip_code": "60611", "country": "US", "state": "IL", "display_address": ["835 N Michigan Ave", "Chicago, IL 60611"]}, "phone": "+13123354745", "display_phone": "(312) 335-4745", "distance": 4581.889482895465}, {"id": "mspxW1oelEoo6YJskI5cJg", "alias": "burger-bar-chicago-south-loop-chicago-6", "name": "Burger Bar Chicago - South Loop", "image_url": "https://s3-media1.fl.yelpcdn.com/bphoto/D9oOHJY1EJ5DsUZBujf0OQ/o.jpg", "is_closed": false, "url": "https://www.yelp.com/biz/burger-bar-chicago-south-loop-chicago-6?adjust_creative=R_NtIwEk2UZQboFrd9Y50w&utm_campaign=yelp_api_v3&utm_medium=api_v3_business_search&utm_source=R_NtIwEk2UZQboFrd9Y50w", "review_count": 624, "categories": [{"alias": "burgers", "title": "Burgers"}, {"alias": "brewpubs", "title": "Brewpubs"}], "rating": 4.0, "coordinates": {"latitude": 41.867902, "longitude": -87.62438}, "transactions": ["delivery", "pickup"], "price": "$$", "location": {"address1": "1150 S Michigan Ave", "address2": null, "address3": "", "city": "Chicago", "zip_code": "60605", "country": "US", "state": "IL", "display_address": ["1150 S Michigan Ave", "Chicago, IL 60605"]}, "phone": "+13129880162", "display_phone": "(312) 988-0162", "distance": 6057.452136400409}, {"id": "g2BZVEeNbFQfruKLDDe-ZQ", "alias": "bar-takito-chicago", "name": "Bar Takito", "image_url": "https://s3-media3.fl.yelpcdn.com/bphoto/AvNDaV1Isr_eYYrZr-YG9w/o.jpg", "is_closed": false, "url": "https://www.yelp.com/biz/bar-takito-chicago?adjust_creative=R_NtIwEk2UZQboFrd9Y50w&utm_campaign=yelp_api_v3&utm_medium=api_v3_business_search&utm_source=R_NtIwEk2UZQboFrd9Y50w", "review_count": 573, "categories": [{"alias": "latin", "title": "Latin American"}, {"alias": "mexican", "title": "Mexican"}, {"alias": "bars", "title": "Bars"}], "rating": 4.0, "coordinates": {"latitude": 41.8857, "longitude": -87.6519851}, "transactions": ["delivery", "pickup"], "price": "$$", "location": {"address1": "201 N Morgan St", "address2": null, "address3": "", "city": "Chicago", "zip_code": "60607", "country": "US", "state": "IL", "display_address": ["201 N Morgan St", "Chicago, IL 60607"]}, "phone": "+13128889485", "display_phone": "(312) 888-9485", "distance": 3026.409962520422}, {"id": "3Yw8i4DTPR5a7SpQJMMS9Q", "alias": "honky-tonk-bbq-chicago", "name": "Honky Tonk BBQ", "image_url": "https://s3-media2.fl.yelpcdn.com/bphoto/SZJPf0fOtJ52xMe79CdcHw/o.jpg", "is_closed": false, "url": "https://www.yelp.com/biz/honky-tonk-bbq-chicago?adjust_creative=R_NtIwEk2UZQboFrd9Y50w&utm_campaign=yelp_api_v3&utm_medium=api_v3_business_search&utm_source=R_NtIwEk2UZQboFrd9Y50w", "review_count": 861, "categories": [{"alias": "bbq", "title": "Barbeque"}, {"alias": "divebars", "title": "Dive Bars"}, {"alias": "musicvenues", "title": "Music Venues"}], "rating": 3.5, "coordinates": {"latitude": 41.85779, "longitude": -87.65678}, "transactions": ["delivery", "pickup"], "price": "$$", "location": {"address1": "1800 S Racine Ave", "address2": "", "address3": "", "city": "Chicago", "zip_code": "60608", "country": "US", "state": "IL", "display_address": ["1800 S Racine Ave", "Chicago, IL 60608"]}, "phone": "+13122267427", "display_phone": "(312) 226-7427", "distance": 5546.648234531047}, {"id": "zwEvkkliEdhDcRZtnHO2JA", "alias": "centennial-crafted-beer-and-eatery-chicago", "name": "Centennial Crafted Beer & Eatery", "image_url": "https://s3-media3.fl.yelpcdn.com/bphoto/PtuKGAXRgGQ0cl3lxSf_lw/o.jpg", "is_closed": false, "url": "https://www.yelp.com/biz/centennial-crafted-beer-and-eatery-chicago?adjust_creative=R_NtIwEk2UZQboFrd9Y50w&utm_campaign=yelp_api_v3&utm_medium=api_v3_business_search&utm_source=R_NtIwEk2UZQboFrd9Y50w", "review_count": 216, "categories": [{"alias": "beerbar", "title": "Beer Bar"}, {"alias": "pubs", "title": "Pubs"}, {"alias": "newamerican", "title": "American (New)"}], "rating": 4.5, "coordinates": {"latitude": 41.8958299, "longitude": -87.63235}, "transactions": ["delivery"], "price": "$$", "location": {"address1": "733 N LaSalle Dr", "address2": null, "address3": "", "city": "Chicago", "zip_code": "60654", "country": "US", "state": "IL", "display_address": ["733 N LaSalle Dr", "Chicago, IL 60654"]}, "phone": "+13122845353", "display_phone": "(312) 284-5353", "distance": 3890.8777153534274}, {"id": "bFWnNX0WIxrx13J_7xleeg", "alias": "blvd-chicago", "name": "BLVD", "image_url": "https://s3-media4.fl.yelpcdn.com/bphoto/LRz5Uxzdegw8nsN6s92ikQ/o.jpg", "is_closed": false, "url": "https://www.yelp.com/biz/blvd-chicago?adjust_creative=R_NtIwEk2UZQboFrd9Y50w&utm_campaign=yelp_api_v3&utm_medium=api_v3_business_search&utm_source=R_NtIwEk2UZQboFrd9Y50w", "review_count": 459, "categories": [{"alias": "newamerican", "title": "American (New)"}], "rating": 4.0, "coordinates": {"latitude": 41.8854, "longitude": -87.64823}, "transactions": ["delivery"], "price": "$$$", "location": {"address1": "817 W Lake St", "address2": "", "address3": null, "city": "Chicago", "zip_code": "60607", "country": "US", "state": "IL", "display_address": ["817 W Lake St", "Chicago, IL 60607"]}, "phone": "+13125263116", "display_phone": "(312) 526-3116", "distance": 3285.902031286441}, {"id": "7o5H7U52hQb-iy-yHtGI-A", "alias": "margeaux-brasserie-chicago", "name": "Margeaux Brasserie", "image_url": "https://s3-media3.fl.yelpcdn.com/bphoto/5wNZof8kMze66iCimN7SmQ/o.jpg", "is_closed": false, "url": "https://www.yelp.com/biz/margeaux-brasserie-chicago?adjust_creative=R_NtIwEk2UZQboFrd9Y50w&utm_campaign=yelp_api_v3&utm_medium=api_v3_business_search&utm_source=R_NtIwEk2UZQboFrd9Y50w", "review_count": 213, "categories": [{"alias": "french", "title": "French"}, {"alias": "brasseries", "title": "Brasseries"}], "rating": 4.5, "coordinates": {"latitude": 41.8996979, "longitude": -87.627619}, "transactions": ["delivery"], "price": "$$$", "location": {"address1": "11 E Walton St", "address2": "", "address3": null, "city": "Chicago", "zip_code": "60611", "country": "US", "state": "IL", "display_address": ["11 E Walton St", "Chicago, IL 60611"]}, "phone": "+13126251324", "display_phone": "(312) 625-1324", "distance": 4194.290732227129}, {"id": "iuFSSw6VYxgcnUmVDqwQ0Q", "alias": "macku-sushi-chicago", "name": "Macku Sushi", "image_url": "https://s3-media4.fl.yelpcdn.com/bphoto/HLaEfnM_ZhtG9jERcExkVw/o.jpg", "is_closed": false, "url": "https://www.yelp.com/biz/macku-sushi-chicago?adjust_creative=R_NtIwEk2UZQboFrd9Y50w&utm_campaign=yelp_api_v3&utm_medium=api_v3_business_search&utm_source=R_NtIwEk2UZQboFrd9Y50w", "review_count": 410, "categories": [{"alias": "sushi", "title": "Sushi Bars"}, {"alias": "japanese", "title": "Japanese"}, {"alias": "asianfusion", "title": "Asian Fusion"}], "rating": 4.0, "coordinates": {"latitude": 41.92255, "longitude": -87.66521}, "transactions": ["pickup"], "price": "$$$", "location": {"address1": "2239 N Clybourn Ave", "address2": "", "address3": "", "city": "Chicago", "zip_code": "60614", "country": "US", "state": "IL", "display_address": ["2239 N Clybourn Ave", "Chicago, IL 60614"]}, "phone": "+17738808012", "display_phone": "(773) 880-8012", "distance": 2191.4414747872206}, {"id": "t3Gg5wW9wxHO4s9tGBArQQ", "alias": "protein-bar-chicago", "name": "Protein Bar", "image_url": "https://s3-media1.fl.yelpcdn.com/bphoto/ha8WL7AxT05sYBhTfuLzvg/o.jpg", "is_closed": false, "url": "https://www.yelp.com/biz/protein-bar-chicago?adjust_creative=R_NtIwEk2UZQboFrd9Y50w&utm_campaign=yelp_api_v3&utm_medium=api_v3_business_search&utm_source=R_NtIwEk2UZQboFrd9Y50w", "review_count": 399, "categories": [{"alias": "newamerican", "title": "American (New)"}, {"alias": "vegan", "title": "Vegan"}, {"alias": "gluten_free", "title": "Gluten-Free"}], "rating": 4.0, "coordinates": {"latitude": 41.8790123356902, "longitude": -87.6350229818467}, "transactions": ["delivery", "pickup"], "price": "$", "location": {"address1": "235 S Franklin St", "address2": "", "address3": "", "city": "Chicago", "zip_code": "60606", "country": "US", "state": "IL", "display_address": ["235 S Franklin St", "Chicago, IL 60606"]}, "phone": "+13123467300", "display_phone": "(312) 346-7300", "distance": 4579.279766817836}, {"id": "MAnqkx5fDLCkI5TZdmyeDw", "alias": "taco-bell-chicago-5", "name": "Taco Bell", "image_url": "https://s3-media1.fl.yelpcdn.com/bphoto/SM1wm6H3D7XFoLQ2ndFYnw/o.jpg", "is_closed": false, "url": "https://www.yelp.com/biz/taco-bell-chicago-5?adjust_creative=R_NtIwEk2UZQboFrd9Y50w&utm_campaign=yelp_api_v3&utm_medium=api_v3_business_search&utm_source=R_NtIwEk2UZQboFrd9Y50w", "review_count": 331, "categories": [{"alias": "hotdogs", "title": "Fast Food"}, {"alias": "tacos", "title": "Tacos"}], "rating": 4.0, "coordinates": {"latitude": 41.928279, "longitude": -87.673393}, "transactions": ["delivery"], "price": "$", "location": {"address1": "2575 North Clybourn", "address2": "", "address3": "", "city": "Chicago", "zip_code": "60614", "country": "US", "state": "IL", "display_address": ["2575 North Clybourn", "Chicago, IL 60614"]}, "phone": "+17732815156", "display_phone": "(773) 281-5156", "distance": 2596.120895981924}, {"id": "QPr7dxBlnNipJ0R5-GMd-w", "alias": "slims-chicago", "name": "Slim's", "image_url": "https://s3-media2.fl.yelpcdn.com/bphoto/OvIB1k8fefda4tp-bZJO9w/o.jpg", "is_closed": false, "url": "https://www.yelp.com/biz/slims-chicago?adjust_creative=R_NtIwEk2UZQboFrd9Y50w&utm_campaign=yelp_api_v3&utm_medium=api_v3_business_search&utm_source=R_NtIwEk2UZQboFrd9Y50w", "review_count": 349, "categories": [{"alias": "sandwiches", "title": "Sandwiches"}, {"alias": "tradamerican", "title": "American (Traditional)"}, {"alias": "halal", "title": "Halal"}], "rating": 4.0, "coordinates": {"latitude": 41.9615868227063, "longitude": -87.6799042895436}, "transactions": ["delivery", "pickup"], "price": "$", "location": {"address1": "2020 W Montrose Ave", "address2": "", "address3": "", "city": "Chicago", "zip_code": "60618", "country": "US", "state": "IL", "display_address": ["2020 W Montrose Ave", "Chicago, IL 60618"]}, "phone": "+17738787546", "display_phone": "(773) 878-7546", "distance": 6276.947415277277}, {"id": "lSrO-tXH3jR9HODPzft9OQ", "alias": "jimmys-red-hots-chicago", "name": "Jimmy's Red Hots", "image_url": "https://s3-media3.fl.yelpcdn.com/bphoto/RRlA_VDmUMb-IfQkqdjJ_Q/o.jpg", "is_closed": false, "url": "https://www.yelp.com/biz/jimmys-red-hots-chicago?adjust_creative=R_NtIwEk2UZQboFrd9Y50w&utm_campaign=yelp_api_v3&utm_medium=api_v3_business_search&utm_source=R_NtIwEk2UZQboFrd9Y50w", "review_count": 291, "categories": [{"alias": "hotdog", "title": "Hot Dogs"}], "rating": 4.5, "coordinates": {"latitude": 41.906653, "longitude": -87.726735}, "transactions": ["delivery", "pickup"], "price": "$", "location": {"address1": "4000 W Grand Ave", "address2": "", "address3": "", "city": "Chicago", "zip_code": "60651", "country": "US", "state": "IL", "display_address": ["4000 W Grand Ave", "Chicago, IL 60651"]}, "phone": "+17733849513", "display_phone": "(773) 384-9513", "distance": 4055.968623672798}, {"id": "MqB2og2Bdv0YcztieKEWjg", "alias": "bartucci-chicago", "name": "BarTucci", "image_url": "https://s3-media2.fl.yelpcdn.com/bphoto/F1kVgELxODAeOX7ObwAejQ/o.jpg", "is_closed": false, "url": "https://www.yelp.com/biz/bartucci-chicago?adjust_creative=R_NtIwEk2UZQboFrd9Y50w&utm_campaign=yelp_api_v3&utm_medium=api_v3_business_search&utm_source=R_NtIwEk2UZQboFrd9Y50w", "review_count": 265, "categories": [{"alias": "italian", "title": "Italian"}], "rating": 4.5, "coordinates": {"latitude": 41.9423838, "longitude": -87.806911}, "transactions": ["delivery", "pickup", "restaurant_reservation"], "price": "$$", "location": {"address1": "3426 N Harlem Ave", "address2": "", "address3": "", "city": "Chicago", "zip_code": "60634", "country": "US", "state": "IL", "display_address": ["3426 N Harlem Ave", "Chicago, IL 60634"]}, "phone": "+17738874416", "display_phone": "(773) 887-4416", "distance": 11458.346893331625}, {"id": "cVULFhP_qRHskfIWNysR_w", "alias": "meli-cafe-chicago-3", "name": "Meli Cafe", "image_url": "https://s3-media1.fl.yelpcdn.com/bphoto/lNmyMz2qau94Bs5DS8XISQ/o.jpg", "is_closed": false, "url": "https://www.yelp.com/biz/meli-cafe-chicago-3?adjust_creative=R_NtIwEk2UZQboFrd9Y50w&utm_campaign=yelp_api_v3&utm_medium=api_v3_business_search&utm_source=R_NtIwEk2UZQboFrd9Y50w", "review_count": 687, "categories": [{"alias": "breakfast_brunch", "title": "Breakfast & Brunch"}, {"alias": "tradamerican", "title": "American (Traditional)"}], "rating": 3.5, "coordinates": {"latitude": 41.8918462775328, "longitude": -87.6342765335556}, "transactions": ["delivery", "pickup"], "price": "$$", "location": {"address1": "540 N Wells St", "address2": "", "address3": null, "city": "Chicago", "zip_code": "60654", "country": "US", "state": "IL", "display_address": ["540 N Wells St", "Chicago, IL 60654"]}, "phone": "+13125271850", "display_phone": "(312) 527-1850", "distance": 3891.8647985171774}, {"id": "TP8zxYve1T4_xq7mLAT-1g", "alias": "ceres-cafe-chicago", "name": "Ceres Cafe", "image_url": "https://s3-media2.fl.yelpcdn.com/bphoto/PAKriHUy-kbECq74fyDk4Q/o.jpg", "is_closed": false, "url": "https://www.yelp.com/biz/ceres-cafe-chicago?adjust_creative=R_NtIwEk2UZQboFrd9Y50w&utm_campaign=yelp_api_v3&utm_medium=api_v3_business_search&utm_source=R_NtIwEk2UZQboFrd9Y50w", "review_count": 402, "categories": [{"alias": "tradamerican", "title": "American (Traditional)"}, {"alias": "breakfast_brunch", "title": "Breakfast & Brunch"}, {"alias": "sandwiches", "title": "Sandwiches"}], "rating": 4.0, "coordinates": {"latitude": 41.8780574, "longitude": -87.6322115}, "transactions": ["delivery"], "price": "$$", "location": {"address1": "141 W Jackson Blvd", "address2": "", "address3": "", "city": "Chicago", "zip_code": "60604", "country": "US", "state": "IL", "display_address": ["141 W Jackson Blvd", "Chicago, IL 60604"]}, "phone": "+13124273443", "display_phone": "(312) 427-3443", "distance": 4826.960899404373}, {"id": "NGfbRjWoqUh2fGw8DU_pmA", "alias": "caro-mio-chicago", "name": "Caro Mio", "image_url": "https://s3-media3.fl.yelpcdn.com/bphoto/jczZXxO7a9u0N04CLALEYQ/o.jpg", "is_closed": false, "url": "https://www.yelp.com/biz/caro-mio-chicago?adjust_creative=R_NtIwEk2UZQboFrd9Y50w&utm_campaign=yelp_api_v3&utm_medium=api_v3_business_search&utm_source=R_NtIwEk2UZQboFrd9Y50w", "review_count": 602, "categories": [{"alias": "italian", "title": "Italian"}], "rating": 4.0, "coordinates": {"latitude": 41.9651506, "longitude": -87.6758369}, "transactions": ["delivery", "pickup", "restaurant_reservation"], "price": "$$", "location": {"address1": "1833 W Wilson Ave", "address2": "", "address3": "", "city": "Chicago", "zip_code": "60640", "country": "US", "state": "IL", "display_address": ["1833 W Wilson Ave", "Chicago, IL 60640"]}, "phone": "+17732755000", "display_phone": "(773) 275-5000", "distance": 6672.631775626292}, {"id": "WsU46rtQDsc9tZUWroD4TA", "alias": "als-beef-chicago-17", "name": "Al's Beef", "image_url": "https://s3-media3.fl.yelpcdn.com/bphoto/On_Vs6SgucbNaLIL54NCYg/o.jpg", "is_closed": false, "url": "https://www.yelp.com/biz/als-beef-chicago-17?adjust_creative=R_NtIwEk2UZQboFrd9Y50w&utm_campaign=yelp_api_v3&utm_medium=api_v3_business_search&utm_source=R_NtIwEk2UZQboFrd9Y50w", "review_count": 670, "categories": [{"alias": "italian", "title": "Italian"}, {"alias": "hotdog", "title": "Hot Dogs"}, {"alias": "sandwiches", "title": "Sandwiches"}], "rating": 3.5, "coordinates": {"latitude": 41.89302, "longitude": -87.6337999}, "transactions": ["delivery", "pickup"], "price": "$$", "location": {"address1": "169 W Ontario St", "address2": "", "address3": "", "city": "Chicago", "zip_code": "60654", "country": "US", "state": "IL", "display_address": ["169 W Ontario St", "Chicago, IL 60654"]}, "phone": "+13129433222", "display_phone": "(312) 943-3222", "distance": 3874.7323215118877}], "total": 5900, "region": {"center": {"longitude": -87.67776489257812, "latitude": 41.90515925618311}}}